[
  {
    "endDate": "2016-10-09", 
    "image": "https://s3.amazonaws.com/assets.mlh.io/events/splashes/000/000/431/thumb/384cfc46cfd2-barcelona_spain_1.jpg?1472739614", 
    "locality": "Barcelona", 
    "location": "Barcelona, Spain", 
    "logo": "https://s3.amazonaws.com/assets.mlh.io/events/logos/000/000/431/thumb/f8ebe2f12125-mini_logo_fall_mlh.png?1472739614", 
    "name": "HackUPC", 
    "region": "Spain", 
    "startDate": "2016-10-07", 
    "url": "https://hackupc.com/"
  }, 
  {
    "endDate": "2016-10-16", 
    "image": "https://s3.amazonaws.com/assets.mlh.io/events/splashes/000/000/466/thumb/guts_splash.jpg?1474989270", 
    "locality": "Glasgow", 
    "location": "Glasgow, UK", 
    "logo": "https://s3.amazonaws.com/assets.mlh.io/events/logos/000/000/466/thumb/guts_logo.png?1474989269", 
    "name": "Do You Have The GUTS", 
    "region": "UK", 
    "startDate": "2016-10-14", 
    "url": "http://gutechsoc.com/"
  }, 
  {
    "endDate": "2016-10-16", 
    "image": "https://s3.amazonaws.com/assets.mlh.io/events/splashes/000/000/419/thumb/sheffield_splash.png?1471620209", 
    "locality": "Sheffield", 
    "location": "Sheffield, UK", 
    "logo": "https://s3.amazonaws.com/assets.mlh.io/events/logos/000/000/419/thumb/sheffield_logo.png?1471620209", 
    "name": "HackSheffield", 
    "region": "UK", 
    "startDate": "2016-10-15", 
    "url": "https://www.hacksheffield.co/"
  }, 
  {
    "endDate": "2016-10-16", 
    "image": "https://s3.amazonaws.com/assets.mlh.io/events/splashes/000/000/434/thumb/f4785ffe292f-JacobsHack_BG.jpg?1472972370", 
    "locality": "Bremen", 
    "location": "Bremen, Germany", 
    "logo": "https://s3.amazonaws.com/assets.mlh.io/events/logos/000/000/434/thumb/5e00c94e0d20-JacobsHack_Logo.jpg?1472972370", 
    "name": "JacobsHack!", 
    "region": "Germany", 
    "startDate": "2016-10-15", 
    "url": "https://2016f.jacobshack.com/"
  }, 
  {
    "endDate": "2017-10-30", 
    "image": "https://s3.amazonaws.com/assets.mlh.io/events/splashes/000/000/418/thumb/55217073c7ff-oldjoebhcollat.jpg?1471620207", 
    "locality": "Birmingham", 
    "location": "Birmingham, UK", 
    "logo": "https://s3.amazonaws.com/assets.mlh.io/events/logos/000/000/418/thumb/brumhack.jpg?1474373969", 
    "name": "BrumHack", 
    "region": "UK", 
    "startDate": "2016-10-29", 
    "url": "https://www.brumhack.co.uk/"
  }, 
  {
    "endDate": "2016-11-06", 
    "image": "https://s3.amazonaws.com/assets.mlh.io/events/splashes/000/000/452/thumb/astonhack_splash.png?1473775279", 
    "locality": "Birmingham", 
    "location": "Birmingham, UK", 
    "logo": "https://s3.amazonaws.com/assets.mlh.io/events/logos/000/000/452/thumb/Astonhack_logo.png?1473775279", 
    "name": "AstonHack", 
    "region": "UK", 
    "startDate": "2016-11-05", 
    "url": "http://astonhack.co.uk/"
  }, 
  {
    "endDate": "2016-11-13", 
    "image": "https://s3.amazonaws.com/assets.mlh.io/events/splashes/000/000/483/thumb/fdaa486c5f08-09_02_12_09_236928_0004.JPG?1476727497", 
    "locality": "Manchester", 
    "location": "Manchester, UK", 
    "logo": "https://s3.amazonaws.com/assets.mlh.io/events/logos/000/000/483/thumb/d99f0dda3e46-GuH_no_text.png?1476727496", 
    "name": "GreatUniHack", 
    "region": "UK", 
    "startDate": "2016-11-12", 
    "url": "http://2016f.greatunihack.com/"
  }, 
  {
    "endDate": "2016-11-20", 
    "image": "https://s3.amazonaws.com/assets.mlh.io/events/splashes/000/000/420/thumb/lauslake.jpg?1471620571", 
    "locality": "Lausanne", 
    "location": "Lausanne, Switzerland", 
    "logo": "https://s3.amazonaws.com/assets.mlh.io/events/logos/000/000/420/thumb/logo.png?1474374273", 
    "name": "LauzHack", 
    "region": "Switzerland", 
    "startDate": "2016-11-19", 
    "url": "http://lauzhack.com/"
  }, 
  {
    "endDate": "2016-11-20", 
    "image": "https://s3.amazonaws.com/assets.mlh.io/events/splashes/000/000/459/thumb/oxford_splash.png?1474473382", 
    "locality": "Oxford", 
    "location": "Oxford, UK", 
    "logo": "https://s3.amazonaws.com/assets.mlh.io/events/logos/000/000/459/thumb/oxford_logo.png?1474473382", 
    "name": "OxfordHack", 
    "region": "UK", 
    "startDate": "2016-11-19", 
    "url": "http://www.oxfordhack.com/"
  }, 
  {
    "endDate": "2016-11-27", 
    "image": "https://s3.amazonaws.com/assets.mlh.io/events/splashes/000/000/415/thumb/22a375a62a0a-photo480826695959554199.jpg?1471619945", 
    "locality": "Helsinki", 
    "location": "Helsinki, Finland", 
    "logo": "https://s3.amazonaws.com/assets.mlh.io/events/logos/000/000/415/thumb/junctionlogo.jpg?1471619945", 
    "name": "Junction", 
    "region": "Finland", 
    "startDate": "2016-11-25", 
    "url": "http://hackjunction.com/"
  }, 
  {
    "endDate": "2016-11-27", 
    "image": "https://s3.amazonaws.com/assets.mlh.io/events/splashes/000/000/416/thumb/hackking_splash.png?1471619945", 
    "locality": "London", 
    "location": "London, UK", 
    "logo": "https://s3.amazonaws.com/assets.mlh.io/events/logos/000/000/416/thumb/hackking_logo.png?1471619945", 
    "name": "HackKing's", 
    "region": "UK", 
    "startDate": "2016-11-26", 
    "url": "http://hackkings.org/"
  }, 
  {
    "endDate": "2016-11-27", 
    "image": "https://s3.amazonaws.com/assets.mlh.io/events/splashes/000/000/417/thumb/notts_splash.png?1471620116", 
    "locality": "Nottingham", 
    "location": "Nottingham, UK", 
    "logo": "https://s3.amazonaws.com/assets.mlh.io/events/logos/000/000/417/thumb/notts_logo.png?1471620116", 
    "name": "HackNotts", 
    "region": "UK", 
    "startDate": "2016-11-26", 
    "url": "http://hacknotts.com/"
  }, 
  {
    "endDate": "2016-11-27", 
    "image": "https://s3.amazonaws.com/assets.mlh.io/events/splashes/000/000/478/thumb/a9204b0e3422-varazdin.png?1476116593", 
    "locality": "Vara\u017edin", 
    "location": "Vara\u017edin, Croatia", 
    "logo": "https://s3.amazonaws.com/assets.mlh.io/events/logos/000/000/478/thumb/fd1ca3cd3bb4-RSC_logo.png?1476116593", 
    "name": "Ready, Steady, Code", 
    "region": "Croatia", 
    "startDate": "2016-11-26", 
    "url": "http://rsc.hr/"
  }, 
  {
    "endDate": "2016-12-03", 
    "image": "https://s3.amazonaws.com/assets.mlh.io/events/splashes/000/000/397/thumb/lhd-back.png?1468939593", 
    "locality": "Everywhere", 
    "location": "Everywhere, Worldwide", 
    "logo": "https://s3.amazonaws.com/assets.mlh.io/events/logos/000/000/397/thumb/lhd_front.png?1468939592", 
    "name": "Local Hack Day", 
    "region": "Worldwide", 
    "startDate": "2016-12-03", 
    "url": "https://localhackday.mlh.io/"
  }, 
  {
    "endDate": "2016-12-10", 
    "image": "https://s3.amazonaws.com/assets.mlh.io/events/splashes/000/000/472/thumb/before-event-bg.jpg?1475681232", 
    "locality": "Bucharest", 
    "location": "Bucharest, Romania", 
    "logo": "https://s3.amazonaws.com/assets.mlh.io/events/logos/000/000/472/thumb/1ee7cb076348-mlh.jpg?1475681231", 
    "name": "HackSociety", 
    "region": "Romania", 
    "startDate": "2016-12-08", 
    "url": "http://hacksociety.it/"
  }, 
  {
    "endDate": "2016-12-11", 
    "image": "https://s3.amazonaws.com/assets.mlh.io/events/splashes/000/000/528/thumb/3e560893e194-porticode_splashimage.jpg?1478570242", 
    "locality": "London", 
    "location": "London, UK", 
    "logo": "https://s3.amazonaws.com/assets.mlh.io/events/logos/000/000/528/thumb/24fe36539651-mlhlogo.jpg?1478570241", 
    "name": "Porticode", 
    "region": "UK", 
    "startDate": "2016-12-10", 
    "url": "http://porticode.io/"
  }, 
  {
    "endDate": "2016-12-18", 
    "image": "https://s3.amazonaws.com/assets.mlh.io/events/splashes/000/000/488/thumb/19ad194ee5eb-Splash.png?1477334171", 
    "locality": "Peterborough", 
    "location": "Peterborough, UK", 
    "logo": "https://s3.amazonaws.com/assets.mlh.io/events/logos/000/000/488/thumb/05fd28db249f-Logo.png?1477334170", 
    "name": "Hack the Holidays 2", 
    "region": "UK", 
    "startDate": "2016-12-17", 
    "url": "https://hacktheholidays.io/"
  }, 
  {
    "endDate": "2017-01-29", 
    "image": "https://s3.amazonaws.com/assets.mlh.io/events/splashes/000/000/584/thumb/exhack_splash.png?1483985975", 
    "locality": "Exeter", 
    "location": "Exeter, UK", 
    "logo": "https://s3.amazonaws.com/assets.mlh.io/events/logos/000/000/584/thumb/exhack_logo.png?1483985974", 
    "name": "EXHACK", 
    "region": "UK", 
    "startDate": "2017-01-27", 
    "url": "http://exeterentrepreneurs.com/exhack/"
  }, 
  {
    "endDate": "2017-01-29", 
    "image": "https://s3.amazonaws.com/assets.mlh.io/events/splashes/000/000/574/thumb/698e02063403-splash.jpg?1483443731", 
    "locality": "Durham", 
    "location": "Durham, UK", 
    "logo": "https://s3.amazonaws.com/assets.mlh.io/events/logos/000/000/574/thumb/f397e2dea19b-icon.png?1483443730", 
    "name": "DurHack", 
    "region": "UK", 
    "startDate": "2017-01-28", 
    "url": "http://durhack.com/"
  }, 
  {
    "endDate": "2017-01-29", 
    "image": "https://s3.amazonaws.com/assets.mlh.io/events/splashes/000/000/576/thumb/4bf593c874cc-300_splash.png?1483542683", 
    "locality": "Cambridge", 
    "location": "Cambridge, UK", 
    "logo": "https://s3.amazonaws.com/assets.mlh.io/events/logos/000/000/576/thumb/a25834d0f5bb-100.png?1483542683", 
    "name": "Hack Cambridge: Recurse", 
    "region": "UK", 
    "startDate": "2017-01-28", 
    "url": "https://hackcambridge.com/"
  }, 
  {
    "endDate": "2017-02-12", 
    "image": "https://s3.amazonaws.com/assets.mlh.io/events/splashes/000/000/560/thumb/stirhack_splash.jpg?1481582752", 
    "locality": "Stirling", 
    "location": "Stirling, UK", 
    "logo": "https://s3.amazonaws.com/assets.mlh.io/events/logos/000/000/560/thumb/stirhack_logo.jpg?1481582752", 
    "name": "StirHack", 
    "region": "UK", 
    "startDate": "2017-02-11", 
    "url": "http://succ.cs.stir.ac.uk/stirhack/"
  }, 
  {
    "endDate": "2017-02-12", 
    "image": "https://s3.amazonaws.com/assets.mlh.io/events/splashes/000/000/587/thumb/strath_splash.png?1484174795", 
    "locality": "Glasgow", 
    "location": "Glasgow, UK", 
    "logo": "https://s3.amazonaws.com/assets.mlh.io/events/logos/000/000/587/thumb/strath_logo.png?1484174795", 
    "name": "StrathHack", 
    "region": "UK", 
    "startDate": "2017-02-11", 
    "url": "https://hack.strathtech.co.uk/"
  }, 
  {
    "endDate": "2017-02-26", 
    "image": "https://s3.amazonaws.com/assets.mlh.io/events/splashes/000/000/628/thumb/sotonhack_splash.png?1486672230", 
    "locality": "Southampton", 
    "location": "Southampton, UK", 
    "logo": "https://s3.amazonaws.com/assets.mlh.io/events/logos/000/000/628/thumb/sotonhack_logo.png?1486672230", 
    "name": "SotonHack", 
    "region": "UK", 
    "startDate": "2017-02-24", 
    "url": "http://sotonhack.com/"
  }, 
  {
    "endDate": "2017-02-26", 
    "image": "https://s3.amazonaws.com/assets.mlh.io/events/splashes/000/000/604/thumb/warwick_hack_spplash.png?1485814241", 
    "locality": "Coventry", 
    "location": "Coventry, UK", 
    "logo": "https://s3.amazonaws.com/assets.mlh.io/events/logos/000/000/604/thumb/warwick_hack_logo.png?1485814240", 
    "name": "WarwickHack", 
    "region": "UK", 
    "startDate": "2017-02-25", 
    "url": "http://hack.warwick.tech/"
  }, 
  {
    "endDate": "2017-03-04", 
    "image": "https://s3.amazonaws.com/assets.mlh.io/events/splashes/000/000/588/thumb/CUCC_Hack_splash.png?1484241669", 
    "locality": "Coventry", 
    "location": "Coventry, UK", 
    "logo": "https://s3.amazonaws.com/assets.mlh.io/events/logos/000/000/588/thumb/CUCC_Hack_logo.png?1484241669", 
    "name": "CUCC Hack", 
    "region": "UK", 
    "startDate": "2017-03-03", 
    "url": "http://cucomputerclub.com/?page_id=66"
  }, 
  {
    "endDate": "2017-03-05", 
    "image": "https://s3.amazonaws.com/assets.mlh.io/events/splashes/000/000/585/thumb/bfc353826ad1-barcelona_spain_1.jpg?1484069154", 
    "locality": "Barcelona", 
    "location": "Barcelona, Spain", 
    "logo": "https://s3.amazonaws.com/assets.mlh.io/events/logos/000/000/585/thumb/8cb1fc6746f7-proposta_logo_hupc3.png?1484069154", 
    "name": "HackUPC", 
    "region": "Spain", 
    "startDate": "2017-03-03", 
    "url": "https://hackupc.com/"
  }, 
  {
    "endDate": "2017-03-12", 
    "image": "https://s3.amazonaws.com/assets.mlh.io/events/splashes/000/000/633/thumb/studenthack_splash.png?1487195415", 
    "locality": "Manchester", 
    "location": "Manchester, UK", 
    "logo": "https://s3.amazonaws.com/assets.mlh.io/events/logos/000/000/633/thumb/studenthack_logo.png?1487195415", 
    "name": "StudentHack V", 
    "region": "UK", 
    "startDate": "2017-03-10", 
    "url": "http://www.studenthack.com/"
  }, 
  {
    "endDate": "2017-03-12", 
    "image": "https://s3.amazonaws.com/assets.mlh.io/events/splashes/000/000/624/thumb/bullhacks_logo.jpg?1486583290", 
    "locality": "Birmingham", 
    "location": "Birmingham, UK", 
    "logo": "https://s3.amazonaws.com/assets.mlh.io/events/logos/000/000/624/thumb/bullhacks_splash.jpg?1486583289", 
    "name": "BullHacks", 
    "region": "UK", 
    "startDate": "2017-03-11", 
    "url": "http://bullhacks.io/"
  }, 
  {
    "endDate": "2017-03-19", 
    "image": "https://s3.amazonaws.com/assets.mlh.io/events/splashes/000/000/590/thumb/starthack_splash.jpg?1484248190", 
    "locality": "St. Gallen", 
    "location": "St. Gallen, Switzerland", 
    "logo": "https://s3.amazonaws.com/assets.mlh.io/events/logos/000/000/590/thumb/starthack_logo.jpg?1484248190", 
    "name": "START Hack", 
    "region": "Switzerland", 
    "startDate": "2017-03-17", 
    "url": "http://starthack.ch/"
  }, 
  {
    "endDate": "2017-03-19", 
    "image": "https://s3.amazonaws.com/assets.mlh.io/events/splashes/000/000/652/thumb/hack_the_burgh_splash.jpg?1488840814", 
    "locality": "Edinburgh", 
    "location": "Edinburgh, UK", 
    "logo": "https://s3.amazonaws.com/assets.mlh.io/events/logos/000/000/652/thumb/hack_the_burgh_logo.png?1488840814", 
    "name": "Hack the Burgh", 
    "region": "UK", 
    "startDate": "2017-03-18", 
    "url": "http://2017.hacktheburgh.com/"
  }, 
  {
    "endDate": "2017-03-26", 
    "image": "https://s3.amazonaws.com/assets.mlh.io/events/splashes/000/000/641/thumb/brumhack_splash.jpg?1487781186", 
    "locality": "Birmingham", 
    "location": "Birmingham, UK", 
    "logo": "https://s3.amazonaws.com/assets.mlh.io/events/logos/000/000/641/thumb/brumhack_logo.png?1487781186", 
    "name": "BrumHack 6.0", 
    "region": "UK", 
    "startDate": "2017-03-25", 
    "url": "https://www.brumhack.co.uk/"
  }, 
  {
    "endDate": "2017-03-26", 
    "image": "https://s3.amazonaws.com/assets.mlh.io/events/splashes/000/000/615/thumb/hackcity.jpg?1486556806", 
    "locality": "London", 
    "location": "London, UK", 
    "logo": "https://s3.amazonaws.com/assets.mlh.io/events/logos/000/000/615/thumb/hcLogo.png?1486151828", 
    "name": "HackCity", 
    "region": "UK", 
    "startDate": "2017-03-25", 
    "url": "http://www.hackcity.org/"
  }, 
  {
    "endDate": "2017-04-02", 
    "image": "https://s3.amazonaws.com/assets.mlh.io/events/splashes/000/000/614/thumb/auhack_splash.jpg?1486151636", 
    "locality": "Aarhus", 
    "location": "Aarhus, Denmark", 
    "logo": "https://s3.amazonaws.com/assets.mlh.io/events/logos/000/000/614/thumb/auhack_logo.jpg?1486151635", 
    "name": "AUHack", 
    "region": "Denmark", 
    "startDate": "2017-03-31", 
    "url": "https://auhack.org/"
  }, 
  {
    "endDate": "2017-04-02", 
    "image": "https://s3.amazonaws.com/assets.mlh.io/events/splashes/000/000/598/thumb/HACKEINDHOVEN_SPLASH.jpg?1485376117", 
    "locality": "Eindhoven", 
    "location": "Eindhoven, The Netherlands", 
    "logo": "https://s3.amazonaws.com/assets.mlh.io/events/logos/000/000/598/thumb/HACKEINDHOVEN_LOGO.png?1485376116", 
    "name": "HEX", 
    "region": "The Netherlands", 
    "startDate": "2017-04-01", 
    "url": "http://hackeindhoven.nl/"
  }, 
  {
    "endDate": "2017-04-02", 
    "image": "https://s3.amazonaws.com/assets.mlh.io/events/splashes/000/000/487/thumb/MLH_Prime_Europe_Background.jpg?1485980850", 
    "locality": "London", 
    "location": "London, UK", 
    "logo": "https://s3.amazonaws.com/assets.mlh.io/events/logos/000/000/487/thumb/MLH_Prime_Europe_Logo.jpg?1485980850", 
    "name": "MLH Prime: Europe", 
    "region": "UK", 
    "startDate": "2017-04-01", 
    "url": "https://prime.mlh.io/events/europe-regional/"
  }, 
  {
    "endDate": "2017-04-16", 
    "image": "https://s3.amazonaws.com/assets.mlh.io/events/splashes/000/000/642/thumb/rgu_splash.jpg?1487781503", 
    "locality": "Aberdeen", 
    "location": "Aberdeen, UK", 
    "logo": "https://s3.amazonaws.com/assets.mlh.io/events/logos/000/000/642/thumb/rgu_logo.png?1487781503", 
    "name": "RGUHack", 
    "region": "UK", 
    "startDate": "2017-04-15", 
    "url": "https://rguhack.uk/"
  }, 
  {
    "endDate": "2017-04-23", 
    "image": "https://s3.amazonaws.com/assets.mlh.io/events/splashes/000/000/594/thumb/hackaburg_splash.png?1484768096", 
    "locality": "Regensburg", 
    "location": "Regensburg, Germany", 
    "logo": "https://s3.amazonaws.com/assets.mlh.io/events/logos/000/000/594/thumb/hackaburg_logo.png?1484768095", 
    "name": "Hackaburg", 
    "region": "Germany", 
    "startDate": "2017-04-21", 
    "url": "http://www.hackaburg.de/"
  }, 
  {
    "endDate": "2017-04-23", 
    "image": "https://s3.amazonaws.com/assets.mlh.io/events/splashes/000/000/646/thumb/anvil_splash.png?1488404102", 
    "locality": "London", 
    "location": "London, UK", 
    "logo": "https://s3.amazonaws.com/assets.mlh.io/events/logos/000/000/646/thumb/anvil_logo.png?1488404101", 
    "name": "Anvil Hack", 
    "region": "UK", 
    "startDate": "2017-04-22", 
    "url": "http://anvil.hacksmiths.club/"
  }, 
  {
    "endDate": "2017-04-23", 
    "image": "https://s3.amazonaws.com/assets.mlh.io/events/splashes/000/000/626/thumb/copenhacks_splash.png?1486583429", 
    "locality": "Copenhagen", 
    "location": "Copenhagen, Denmark", 
    "logo": "https://s3.amazonaws.com/assets.mlh.io/events/logos/000/000/626/thumb/copenhacks_logo.png?1486583429", 
    "name": "CopenHacks", 
    "region": "Denmark", 
    "startDate": "2017-04-22", 
    "url": "http://copenhacks.com/"
  }, 
  {
    "endDate": "2017-04-23", 
    "image": "https://s3.amazonaws.com/assets.mlh.io/events/splashes/000/000/663/thumb/3bf599448862-splash.jpg?1490486554", 
    "locality": "Naples", 
    "location": "Naples, Italy", 
    "logo": "https://s3.amazonaws.com/assets.mlh.io/events/logos/000/000/663/thumb/349cd5f979fe-MannHackMLHWebsiteLogo.png?1490486554", 
    "name": "MANNhack", 
    "region": "Italy", 
    "startDate": "2017-04-22", 
    "url": "http://mannhack.com/"
  }, 
  {
    "endDate": "2017-04-30", 
    "image": "https://s3.amazonaws.com/assets.mlh.io/events/splashes/000/000/669/thumb/hackessex_splash.jpg?1491405999", 
    "locality": "Colchester", 
    "location": "Colchester, UK", 
    "logo": "https://s3.amazonaws.com/assets.mlh.io/events/logos/000/000/669/thumb/hackessex_logo.jpg?1491405999", 
    "name": "HackEssex", 
    "region": "UK", 
    "startDate": "2017-04-29", 
    "url": "http://hackessex.com/"
  }, 
  {
    "endDate": "2017-04-30", 
    "image": "https://s3.amazonaws.com/assets.mlh.io/events/splashes/000/000/625/thumb/hackmed_splash.png?1486583241", 
    "locality": "Sheffield", 
    "location": "Sheffield, UK", 
    "logo": "https://s3.amazonaws.com/assets.mlh.io/events/logos/000/000/625/thumb/hackmed_logo.png?1486583241", 
    "name": "HackMed", 
    "region": "UK", 
    "startDate": "2017-04-29", 
    "url": "http://hackmed.uk/"
  }, 
  {
    "endDate": "2017-05-07", 
    "image": "https://s3.amazonaws.com/assets.mlh.io/events/splashes/000/000/662/thumb/665891c16fcb-hackbordeaux_splash.jpg?1490376786", 
    "locality": "Bordeaux", 
    "location": "Bordeaux, France", 
    "logo": "https://s3.amazonaws.com/assets.mlh.io/events/logos/000/000/662/thumb/eefafc379765-hackbordeaux_logo.png?1490376786", 
    "name": "HackBordeaux", 
    "region": "France", 
    "startDate": "2017-05-06", 
    "url": "http://hackbordeaux.com/"
  }
]